[
    {
        "name": "Hemope",
        "link": "http://www.hemope.pe.gov.br/",
        "address": {
            "street": "Rua Joaquim Nabuco, 171",
            "neighborhood": "Derby",
            "postalCode": "52011-000",
            "locality": "Recife",
            "region": "PE"
        },
        "phone": "0800 081 1535",
        "location": {
            "lat": "-8.05259",
            "lng": "-34.89783"
        },
        "extra": "Segunda à Sábado, das 07:15 às 18:30"
    },
    {
        "name": "Centro de Hematologia e Hemoterapia - Unicamp",
        "link": "http://www.hemocentro.unicamp.br/",
        "address": {
            "street": "Rua Carlos Chagas, 480",
            "neighborhood": "Cidade Universitária",
            "postalCode": "13083-878",
            "locality": "Campinas",
            "region": "SP"
        },
        "phone": "0800 722 8432",
        "location": {
            "lat": 	"-22.82642",
            "lng": "-47.06339"
        },
        "extra": ""
    },
    {
        "name": "Fundação Pró-Sangue - Posto Clínicas",
        "link": "http://www.prosangue.sp.gov.br/",
        "address": {
            "street": "Av. Enéas Carvalho Aguiar, 155 1º andar",
            "neighborhood": "Cerqueira César",
            "postalCode": "05403-000",
            "locality": "São Paulo",
            "region": "SP"
        },
        "phone": "0800-55-0300",
        "location": {
            "lat": "-23.55706",
            "lng": "-46.66820"
        },
        "extra": ""
    },
    {
        "name": "HEMOTO",
        "link": "",
        "address": {
            "street": "301 Norte Conj. 02",
            "neighborhood": "Lt. I",
            "postalCode": "52011-000",
            "locality": "Palmas",
            "region": "TO"
        },
        "phone": "+55 61 3218-3285",
        "location": {
            "lat": "-10.16889",
            "lng": "-48.33172"
        },
        "extra": ""
    },
    {
        "name": "HEMOAM",
        "link": "http://www.hemoam.am.gov.br/‎",
        "address": {
            "street": "Av. Constantino Nery , 3240",
            "neighborhood": "Chapada",
            "postalCode": "69050-002",
            "locality": "Manaus",
            "region": "AM"
        },
        "phone": "0800 285 0220",
        "location": {
            "lat": "-3.09427",
            "lng": "-60.02641"
        },
        "extra": "Segunda à Sexta, das 07:30 às 18:00"
    },
    {
        "name": "HEMOMAT",
        "link": "",
        "address": {
            "street": "Rua 13 de Junho, 1055",
            "neighborhood": "Centro",
            "postalCode": "",
            "locality": "Cuiabá",
            "region": "TO"
        },
        "phone": "+55 61 3218-3285",
        "location": {
            "lat": "-15.60526",
            "lng": "-56.10137"
        },
        "extra": ""
    },
    {
        "name": "HEMORIO",
        "link": "http://www.hemorio.rj.gov.br/",
        "address": {
            "street": "Rua Frei Caneca, 8",
            "neighborhood": "Centro",
            "postalCode": "20211-030",
            "locality": "Rio de Janeiro",
            "region": "RJ"
        },
        "phone": "0800 282 0708",
        "location": {
            "lat": "-22.90920",
            "lng": "-43.18955"
        },
        "extra": "Todos os dias, das 7:00 às 18:00 (inclusive feriados)"
    },
    {
        "name": "HEMOG",
        "link": "",
        "address": {
            "street": "Av. Anhanguera, 5195",
            "neighborhood": "Setor Coimbra",
            "postalCode": "74110-010",
            "locality": "Goiania",
            "region": "GO"
        },
        "phone": "+55 61 3218-3285",
        "location": {
            "lat": "-16.67570",
            "lng": "-49.27982"
        },
        "extra": ""
    },
    {
        "name": "Fundação Hemocentro de Brasília",
        "link": "http://www.fhb.df.gov.br/",
        "address": {
            "street": "SMHN Q 3 Conj A - Bloco 3",
            "neighborhood": "Asa Norte",
            "postalCode": "70710-904",
            "locality": "Brasília",
            "region": "DF"
        },
        "phone": "+55 61 3327-4413",
        "location": {
            "lat": "-15.78332",
            "lng": "-47.88564"
        },
        "extra": "Segunda à Sábado, das 7:00 às 18:00"
    },
    {
        "name": "HEMEPAR",
        "link": "http://www.sesa.pr.gov.br/modules/conteudo/conteudo.php?conteudo=2983",
        "address": {
            "street": "Travessa João Prosdócimo, 145",
            "neighborhood": "Alto da XV",
            "postalCode": "80060-220",
            "locality": "Curitiba",
            "region": "PR"
        },
        "phone": "0800 645 4555",
        "location": {
            "lat": "-25.42527",
            "lng": "-49.25731"
        },
        "extra": "Segunda à Sexta, das 7:30 às 18:30 e Sábado das 8:00 às 16:00"
    },
    {
        "name": "HEMOSC",
        "link": "http://www.hemosc.org.br/",
        "address": {
            "street": "Av. Othon Gama D'Eça, 756",
            "neighborhood": "Centro",
            "postalCode": "88015-240",
            "locality": "Florianópolis",
            "region": "SC"
        },
        "phone": "+55 (48) 3251-9700",
        "location": {
            "lat": "-27.08079",
            "lng": "-52.61384"
        },
        "extra": "07:15 às 18:30"
    },
    {
        "name": "HEMOSC Regional de Chapecó",
        "link": "http://www.hemosc.org.br/",
        "address": {
            "street": "Rua São Leopoldo, 391",
            "neighborhood": "Esplanada",
            "postalCode": "89812-530",
            "locality": "Chapecó",
            "region": "SC"
        },
        "phone": "+55 (49) 3329-0550",
        "location": {
            "lat": "-27.11276",
            "lng": "-52.59687"
        },
        "extra": "Segunda à Sexta, das 7:00 às 18:00 e 3º Sábado do mês das 8:00 às 16:00"
    },
    {
        "name": "HEMOSC Unidade de Coleta Canoinhas",
        "link": "http://www.hemosc.org.br/",
        "address": {
            "street": "Rua João da Cruz Krailing, 1050",
            "neighborhood": "Centro",
            "postalCode": "89460-000",
            "locality": "Canoinhas",
            "region": "SC"
        },
        "phone": "+55 (47) 3622-6900",
        "location": {
            "lat": "-26.18530",
            "lng": "-50.38997"
        },
        "extra": "07:00 às 11:30"
    },
    {
        "name": "HEMOSC Regional de Criciúma",
        "link": "http://www.hemosc.org.br/",
        "address": {
            "street": "Av. Centenário, 1700",
            "neighborhood": "Santa Barbara",
            "postalCode": "88804-001",
            "locality": "Criciúma",
            "region": "SC"
        },
        "phone": "+55 (48) 3433-6611",
        "location": {
            "lat": "-28.69455",
            "lng": "-49.39581"
        },
        "extra": "07:30 às 18:30"
    },
    {
        "name": "HEMOPI",
        "link": "http://www.hemopi.pi.gov.br/",
        "address": {
            "street": "Rua Primeiro de Maio, 235",
            "neighborhood": "Centro",
            "postalCode": "64001-430",
            "locality": "Teresina",
            "region": "Piauí"
        },
        "phone": "0800 285 4989",
        "location": {
            "lat": "-5.08592",
            "lng": "-42.80574"
        },
        "extra": "Segunda à Sábado, das 07:00 às 18:00"
    },
    {
        "name": "HEMOCE",
        "link": "http://www.hemoce.ce.gov.br/",
        "address": {
            "street": "Av. José Bastos, 3390",
            "neighborhood": "Rodolfo Teófilo",
            "postalCode": "60440-261",
            "locality": "Fortaleza",
            "region": "CE"
        },
        "phone": "0800 286 2296",
        "location": {
            "lat": "-3.72098",
            "lng": "-38.54657"
        },
        "extra": "Segunda à Sexta, das 7:30 às 18:30 e Sábado das 8:00 às 16:00"
    },
    {
        "name": "HEMOÍBA",
        "link": "",
        "address": {
            "street": "Av. D. Pedro II, 1119",
            "neighborhood": "Torre",
            "postalCode": "58040-013",
            "locality": "João Pessoa",
            "region": "PB"
        },
        "phone": "+55 (83) 3218-7601",
        "location": {
            "lat": "-18.74880",
            "lng": "-44.42892"
        },
        "extra": ""
    },
    {
        "name": "HEMOAL",
        "link": "http://www.saude.al.gov.br/hemoal",
        "address": {
            "street": "Av. Jorge de Lima, 58",
            "neighborhood": "Trapiche da Barra",
            "postalCode": "57010-382",
            "locality": "Maceió",
            "region": "AL"
        },
        "phone": "+55 (82) 3315-2106",
        "location": {
            "lat": "-9.67239",
            "lng": "-35.75831"
        },
        "extra": ""
    },
    {
        "name": "HEMOMINAS",
        "link": "http://www.hemominas.mg.gov.br/",
        "address": {
            "street": "Al. Ezequiel Dias, 321",
            "neighborhood": "Santa Efigênia",
            "postalCode": "30130-110",
            "locality": "Belo Horizonte",
            "region": "MG"
        },
        "phone": "0800 031 0101",
        "location": {
            "lat": "-19.92478",
            "lng": "-43.93192"
        },
        "extra": ""
    },
    {
        "name": "HEMOES",
        "link": "https://www.facebook.com/hemoes",
        "address": {
            "street": "Av. Marechal Campos, 1468",
            "neighborhood": "Maruípe",
            "postalCode": "29047-105",
            "locality": "Vitória",
            "region": "ES"
        },
        "phone": "+55 (27) 3137-2435",
        "location": {
            "lat": "-20.29848",
            "lng": "-40.31678"
        },
        "extra": "Segunda ao Sábado das 7:00 às 17:30"
    },
    {
        "name": "HEMOSUL",
        "link": "http://www.hemosul.ms.gov.br/",
        "address": {
            "street": "Av. Fernando Correia da Costa, 1304",
            "neighborhood": "Centro",
            "postalCode": "79004-310",
            "locality": "Campo Grande",
            "region": "MS"
        },
        "phone": "+55 (67) 3312-1517",
        "location": {
            "lat": "-20.46898",
            "lng": "-54.61829"
        },
        "extra": ""
    }
]